"","agency_cd","site_no","station_nm","site_tp_cd","dec_lat_va","dec_long_va","colocated","queryTime","Latitude_Bin"
"1","USGS","15297617","SWEEPER C AT ADAK IS AK","ST",51.87584326,-176.663309,FALSE,2019-11-01 16:56:00,1
"2","USGS","15297625","MOFFETT C AT ADAK IS AK","ST",51.93639769,-176.6519277,FALSE,2019-11-01 16:56:00,1
"3","USGS","15635000","ELDORADO C NR TELLER AK","ST",64.9578393,-166.2026442,FALSE,2019-11-01 16:56:00,7
"4","USGS","680630165510000","NASORAK C NR PT HOPE AK","ST",68.1076205,-165.8529643,FALSE,2019-11-01 16:56:00,9
"5","USGS","15748000","OGOTORUK C NR POINT HOPE AK","ST",68.1104,-165.7557427,FALSE,2019-11-01 16:56:00,9
"6","USGS","15625900","STEWART R 0.2 MI BL DURRANT C MTH NR NOME AK","ST",64.7883333,-165.6316667,FALSE,2019-11-01 16:56:00,7
"7","USGS","15621000","SNAKE R NR NOME AK","ST",64.5633967,-165.5098082,FALSE,2019-11-01 16:56:00,7
"8","USGS","680355165294500","KISIMILOK C NR KIVALINA","ST",68.0645716,-165.498794,FALSE,2019-11-01 16:56:00,9
"9","USGS","15625850","STEWART R 0.1 MI BL BOULDER C MTH NR NOME AK","ST",64.80777778,-165.4295278,FALSE,2019-11-01 16:56:00,7
"10","USGS","15668200","CRATER C NR NOME AK","ST",64.9292509,-164.8726288,FALSE,2019-11-01 16:56:00,7
"11","USGS","15712000","KUZITRIN R NR NOME AK","ST",65.2206503,-164.6234873,FALSE,2019-11-01 16:56:00,7
"12","USGS","15304400","TAKIKCHAK R NR NEWTOK AK","ST",60.8057973,-164.598393,FALSE,2019-11-01 16:56:00,5
"13","USGS","15716010","HUMBOLT C NR SERPENTINE HOT SPRINGS NR NOME AK","ST",65.843729,-164.4279933,FALSE,2019-11-01 16:56:00,8
"14","USGS","15583500","ETTA C NR COUNCIL AK","ST",64.6981485,-164.1684432,FALSE,2019-11-01 16:56:00,7
"15","USGS","15747000","WULIK R BL TUTAK C NR KIVALINA AK","ST",67.8754405,-163.6773733,FALSE,2019-11-01 16:56:00,9
"16","USGS","15580095","NIUKLUK R AB MELSING C AT COUNCIL AK","ST",64.8919444,-163.67,FALSE,2019-11-01 16:56:00,7
"17","USGS","15746900","WULIK R AB FERRIC C NR KIVALINA AK","ST",68.0776749,-163.190455,FALSE,2019-11-01 16:56:00,9
"18","USGS","15746991","IKALUKROK C BL RED DOG C NR KIVALINA AK","ST",68.0468445,-163.0290619,FALSE,2019-11-01 16:56:00,9
"19","USGS","1574699020","IKALUKROK C 0.6 MI BL RED DOG C NR KIVALINA AK","ST",68.0851795,-162.971567,FALSE,2019-11-01 16:56:00,9
"20","USGS","15746980","IKALUKROK C AB RED DOG C NR KIVALINA AK","ST",68.0932357,-162.9493459,FALSE,2019-11-01 16:56:00,9
"21","USGS","15746000","NOATAK R AT NOATAK AK","ST",67.5710024,-162.9467639,FALSE,2019-11-01 16:56:00,9
"22","USGS","15746990","RED DOG C AB MOUTH NR KIVALINA AK","ST",68.0887914,-162.9424008,FALSE,2019-11-01 16:56:00,9
"23","USGS","15746988","NF RED DOG C NR KIVALINA AK","ST",68.0835148,-162.8840664,FALSE,2019-11-01 16:56:00,9
"24","USGS","15565447","YUKON R AT PILOT STATION AK","ST",61.9336866,-162.8829356,FALSE,2019-11-01 16:56:00,6
"25","USGS","15746983","RED DOG MINE CLEAN WATER D NR KIVALINA AK","ST",68.0737929,-162.862676,FALSE,2019-11-01 16:56:00,9
"26","USGS","15297610","RUSSELL C NR COLD BAY AK","ST",55.1769059,-162.6895109,FALSE,2019-11-01 16:56:00,2
"27","USGS","15743000","JUNE C NR KOTZEBUE AK","ST",66.8596115,-162.6064086,FALSE,2019-11-01 16:56:00,8
"28","USGS","15304293","BROWNS C NR BETHEL AK","ST",60.80480307,-161.8250755,FALSE,2019-11-01 16:56:00,5
"29","USGS","15304298","BROWNS C AT BETHEL AK","ST",60.79813657,-161.7759082,FALSE,2019-11-01 16:56:00,5
"30","USGS","15565400","ANVIK R NR ANVIK AK","ST",62.7887211,-160.699352,FALSE,2019-11-01 16:56:00,6
"31","USGS","15297602","WHISKEY BILLS C NR SAND POINT AK","ST",55.3150102,-160.512013,FALSE,2019-11-01 16:56:00,2
"32","USGS","15297603","HUMBOLDT C AT SAND POINT AK","ST",55.3416777,-160.4861789,FALSE,2019-11-01 16:56:00,2
"33","USGS","15565700","UNALAKLEET R AB CHIROSKEY R NR UNALAKLEET AK","ST",63.9342965,-160.3074725,FALSE,2019-11-01 16:56:00,7
"34","USGS","15744500","KOBUK R NR KIANA AK","ST",66.972994,-160.1336307,FALSE,2019-11-01 16:56:00,8
"35","USGS","15304200","KISARALIK R NR AKIAK AK","ST",60.3520369,-159.9189256,FALSE,2019-11-01 16:56:00,5
"36","USGS","15302840","ELVA LK OUTLET NR ALEKNAGIK AK","ST",59.6034216,-159.1161079,FALSE,2019-11-01 16:56:00,5
"37","USGS","15297585","CHIGNIK R AT BLACK LAKE OUTLET NR CHIGNIK AK","ST",56.3939064,-158.937012,FALSE,2019-11-01 16:56:00,3
"38","USGS","15297580","ALEC R NR CHIGNIK AK","ST",56.4532127,-158.9182398,FALSE,2019-11-01 16:56:00,3
"39","USGS","15303150","SNAKE R NR DILLINGHAM AK","ST",59.1475833,-158.889422,FALSE,2019-11-01 16:56:00,4
"40","USGS","15303100","EAST C NR DILLINGHAM AK","ST",59.19147378,-158.8335894,FALSE,2019-11-01 16:56:00,4
"41","USGS","15301500","ALLEN R NR ALEKNAGIK AK","ST",60.1539944,-158.7366923,FALSE,2019-11-01 16:56:00,5
"42","USGS","15565200","YUKON R NR KALTAG AK","ST",64.3271084,-158.7219249,FALSE,2019-11-01 16:56:00,7
"43","USGS","15303010","SILVER SALMON C NR ALEKNAGIK AK","ST",59.2253657,-158.674699,FALSE,2019-11-01 16:56:00,4
"44","USGS","15303011","WOOD R TR NR ALEKNAGIK AK","ST",59.20647667,-158.6694205,FALSE,2019-11-01 16:56:00,4
"45","USGS","15303000","WOOD R NR ALEKNAGIK AK","ST",59.27425658,-158.5958113,FALSE,2019-11-01 16:56:00,4
"46","USGS","15302800","GRANT LK OUTLET NR ALEKNAGIK AK","ST",59.7945449,-158.5541729,FALSE,2019-11-01 16:56:00,5
"47","USGS","15302000","NUYAKUK R NR DILLINGHAM AK","ST",59.93483,-158.1900062,FALSE,2019-11-01 16:56:00,5
"48","USGS","15304010","CROOKED C AB AIRPORT RD NR CROOKED CREEK AK","ST",61.8893006,-158.156842,FALSE,2019-11-01 16:56:00,6
"49","USGS","15304000","KUSKOKWIM R AT CROOKED CREEK AK","ST",61.8687445,-158.1137848,FALSE,2019-11-01 16:56:00,6
"50","USGS","15744000","KOBUK R AT AMBLER AK","ST",67.08638179,-157.8502846,FALSE,2019-11-01 16:56:00,8
"51","USGS","15302812","KOKWOK R 22 MI AB NUSHAGAK R NR EKWOK AK","ST",59.415,-157.8041667,FALSE,2019-11-01 16:56:00,5
"52","USGS","15302500","NUSHAGAK R AT EKWOK AK","ST",59.3484391,-157.4752426,FALSE,2019-11-01 16:56:00,5
"53","USGS","15803000","MEADE R AT ATKASUK AK","ST",70.4953764,-157.395848,FALSE,2019-11-01 16:56:00,10
"54","USGS","15743850","DAHL C NR KOBUK AK","ST",66.9455603,-156.9116193,FALSE,2019-11-01 16:56:00,8
"55","USGS","15798700","NUNAVAK C NR BARROW AK","ST",71.25930339,-156.7859722,FALSE,2019-11-01 16:56:00,10
"56","USGS","15799300","ESATKUAT LAGOON OUTLET AT BARROW AK","ST",71.2940268,-156.7718103,FALSE,2019-11-01 16:56:00,11
"57","USGS","15799000","ESATKUAT C NR BARROW AK","ST",71.2745826,-156.7323623,FALSE,2019-11-01 16:56:00,10
"58","USGS","15302300","MULCHATNA R AB STUYAHOK R NR NEW STUYAHOK AK","ST",59.8376227,-156.6938693,FALSE,2019-11-01 16:56:00,5
"59","USGS","15297900","ESKIMO C AT KING SALMON AK","ST",58.6848293,-156.6710242,FALSE,2019-11-01 16:56:00,4
"60","USGS","15302320","STUYAHOK R NR NEW STUYAHOK AK","ST",59.80901149,-156.6669229,FALSE,2019-11-01 16:56:00,5
"61","USGS","15565235","OPHIR C NR TAKOTNA AK","ST",63.144371,-156.5231983,FALSE,2019-11-01 16:56:00,6
"62","USGS","15303900","KUSKOKWIM R AT LISKYS CROSSING NR STONY RIVER AK","ST",62.0512773,-156.2129069,FALSE,2019-11-01 16:56:00,6
"63","USGS","15300520","KASKANAK C NR IGIUGIG AK","ST",59.337622,-156.077443,FALSE,2019-11-01 16:56:00,4
"64","USGS","15303700","TATALINA R NR TAKOTNA AK","ST",62.8843697,-155.941803,FALSE,2019-11-01 16:56:00,6
"65","USGS","15300500","KVICHAK R AT IGIUGIG AK","ST",59.32817987,-155.9013295,FALSE,2019-11-01 16:56:00,4
"66","USGS","15302250","NF KOKTULI R NR ILIAMNA AK","ST",59.8424682,-155.7185564,FALSE,2019-11-01 16:56:00,5
"67","USGS","15303600","KUSKOKWIM R AT MCGRATH AK","ST",62.9521517,-155.5887347,FALSE,2019-11-01 16:56:00,6
"68","USGS","15564600","MELOZITNA R NR MOUTH NR RUBY ALASKA","ST",64.7921761,-155.5633035,FALSE,2019-11-01 16:56:00,7
"69","USGS","15302200","KOKTULI R NR ILIAMNA AK","ST",59.7926376,-155.5246895,FALSE,2019-11-01 16:56:00,5
"70","USGS","15564450","LONG C AT LONG NR RUBY AK","ST",64.3999506,-155.5035327,FALSE,2019-11-01 16:56:00,7
"71","USGS","15564800","YUKON R AT RUBY AK","ST",64.74050977,-155.4919074,FALSE,2019-11-01 16:56:00,7
"72","USGS","15300250","UPPER TALARIK C NR ILIAMNA AK","ST",59.7859761,-155.2552406,FALSE,2019-11-01 16:56:00,5
"73","USGS","15300100","BEAR C NR ILIAMNA AK","ST",59.8237617,-154.8844049,FALSE,2019-11-01 16:56:00,5
"74","USGS","15300000","NEWHALEN R NR ILIAMNA AK","ST",59.85876257,-154.8755187,FALSE,2019-11-01 16:56:00,5
"75","USGS","15300200","ROADHOUSE C NR ILIAMNA AK","ST",59.75653898,-154.8491212,FALSE,2019-11-01 16:56:00,5
"76","USGS","15298040","CHULITNA R 5MI AB MOUTH NR PORT ALSWORTH AK","ST",60.2036591,-154.7044349,FALSE,2019-11-01 16:56:00,5
"77","USGS","15820000","IKPIKPUK R BL FRY C NR ALAKTAK AK","ST",69.76639048,-154.6644064,FALSE,2019-11-01 16:56:00,10
"78","USGS","15299900","TAZIMINA R NR NONDALTON AK","ST",59.9173793,-154.6616306,FALSE,2019-11-01 16:56:00,5
"79","USGS","15830000","MIGUAKIAK R NR TESHEKPUK LK NR LONELY AK","ST",70.6698839,-154.3255272,FALSE,2019-11-01 16:56:00,10
"80","USGS","15294900","PAINT R NR KAMISHAK AK","ST",59.1545916,-154.2612832,FALSE,2019-11-01 16:56:00,4
"81","USGS","15564900","KOYUKUK R AT HUGHES AK","ST",66.04695537,-154.2609683,FALSE,2019-11-01 16:56:00,8
"82","USGS","15298000","TANALIAN R NR PORT ALSWORTH AK","ST",60.1882235,-154.2605366,FALSE,2019-11-01 16:56:00,5
"83","USGS","15296950","AKALURA C AT OLGA BAY AK","ST",57.1658977,-154.2286828,FALSE,2019-11-01 16:56:00,3
"84","USGS","15296600","KARLUK R AT OUTLET NR LARSEN BAY AK","ST",57.4428776,-154.1136992,FALSE,2019-11-01 16:56:00,4
"85","USGS","15297000","DOG SALMON C NR AYAKULIK AK","ST",57.20756146,-154.0731494,FALSE,2019-11-01 16:56:00,3
"86","USGS","15296480","LARSEN BAY C NR LARSEN BAY AK","ST",57.5151058,-153.9878626,FALSE,2019-11-01 16:56:00,4
"87","USGS","15296500","FALLS C NR LARSEN BAY AK","ST",57.27424268,-153.986489,FALSE,2019-11-01 16:56:00,3
"88","USGS","15296520","CANYON C NR LARSEN BAY AK","ST",57.2825777,-153.983433,FALSE,2019-11-01 16:56:00,3
"89","USGS","15296550","EAST FORK UPPER THUMB R BL N FORK NR LARSEN BAY AK","ST",57.3500904,-153.9700939,FALSE,2019-11-01 16:56:00,3
"90","USGS","15300300","ILIAMNA R NR PEDRO BAY AK","ST",59.7579499,-153.8468866,FALSE,2019-11-01 16:56:00,5
"91","USGS","15296300","SPIRIDON LK OUTLET NR LARSEN BAY AK","ST",57.67705467,-153.6522943,FALSE,2019-11-01 16:56:00,4
"92","USGS","15296000","UGANIK R NR KODIAK AK","ST",57.684263,-153.4217284,FALSE,2019-11-01 16:56:00,4
"93","USGS","15295700","TERROR R AT MOUTH NR KODIAK AK","ST",57.69397807,-153.1639087,FALSE,2019-11-01 16:56:00,4
"94","USGS","15295600","TERROR R NR KODIAK AK","ST",57.6506352,-153.0316762,FALSE,2019-11-01 16:56:00,4
"95","USGS","15297100","HIDDEN BASIN C NR PORT LIONS AK","ST",57.5942392,-153.0147302,FALSE,2019-11-01 16:56:00,4
"96","USGS","15297110","HIDDEN BASIN C NR MOUTH NR KODIAK AK","ST",57.5625672,-152.9613927,FALSE,2019-11-01 16:56:00,4
"97","USGS","15297482","FALLS C NR PORT LIONS AK","ST",57.66813376,-152.935558,FALSE,2019-11-01 16:56:00,4
"98","USGS","15294700","JOHNSON R AB LATERAL GLACIER NR TUXEDNI BAY AK","ST",60.09411299,-152.912777,FALSE,2019-11-01 16:56:00,5
"99","USGS","15297485","KIZHUYAK R NR PORT LIONS AK","ST",57.7098028,-152.870554,FALSE,2019-11-01 16:56:00,4
"100","USGS","15294640","LAKE FORK CRESCENT R NR TUXEDNI BAY AK","ST",60.3580556,-152.818611,FALSE,2019-11-01 16:56:00,5
"101","USGS","15297475","RED CLOUD R TR NR KODIAK AK","ST",57.81592178,-152.6244165,FALSE,2019-11-01 16:56:00,4
"102","USGS","15297450","MF PILLAR C NR KODIAK AK","ST",57.7986956,-152.4521814,FALSE,2019-11-01 16:56:00,4
"103","USGS","15297470","MONASHKA C NR KODIAK AK","ST",57.8420343,-152.4477333,FALSE,2019-11-01 16:56:00,4
"104","USGS","15297200","MYRTLE C NR KODIAK AK","ST",57.6025645,-152.405523,FALSE,2019-11-01 16:56:00,4
"105","USGS","15295500","L KITOI C NR AFOGNAK AK","ST",58.1951131,-152.3674322,FALSE,2019-11-01 16:56:00,4
"106","USGS","15294500","CHAKACHATNA R NR TYONEK AK","ST",61.2116271,-152.3593688,FALSE,2019-11-01 16:56:00,5
"107","USGS","15294585","MONTANA BILL C AT PIPELINE NR KENAI AK","ST",60.6555361,-152.1286429,FALSE,2019-11-01 16:56:00,5
"108","USGS","15875000","COLVILLE R AT UMIAT AK","ST",69.3605,-152.1226944,FALSE,2019-11-01 16:56:00,10
"109","USGS","15860000","FISH C NR NUIQSUT AK","ST",70.270199,-151.872308,FALSE,2019-11-01 16:56:00,10
"110","USGS","15861000","JUDY C NR NUIQSUT AK","ST",70.2201986,-151.8378484,FALSE,2019-11-01 16:56:00,10
"111","USGS","15240000","ANCHOR R AT ANCHOR POINT AK","ST",59.77188747,-151.8368857,FALSE,2019-11-01 16:56:00,5
"112","USGS","15239900","ANCHOR R NR ANCHOR POINT AK","ST",59.74660897,-151.7552124,FALSE,2019-11-01 16:56:00,5
"113","USGS","15240500","COOK INLET TR NR NINILCHIK AK","ST",59.9785613,-151.7244164,FALSE,2019-11-01 16:56:00,5
"114","USGS","15238795","SELDOVIA R NR SELDOVIA AK","ST",59.3871536,-151.6773763,FALSE,2019-11-01 16:56:00,5
"115","USGS","15294410","CAPPS C BL N CAPPS C NR TYONEK AK","ST",61.3286045,-151.667748,FALSE,2019-11-01 16:56:00,5
"116","USGS","15241600","NINILCHIK R AT NINILCHIK AK","ST",60.04841667,-151.6649167,FALSE,2019-11-01 16:56:00,5
"117","USGS","15238820","BARABARA C NR SELDOVIA AK","ST",59.4799395,-151.6471106,FALSE,2019-11-01 16:56:00,5
"118","USGS","15239880","TWITTER C NR HOMER AK","ST",59.7143866,-151.6315876,FALSE,2019-11-01 16:56:00,5
"119","USGS","15238860","TUTKA LAGOON C NR HOMER AK","ST",59.4324414,-151.412098,FALSE,2019-11-01 16:56:00,5
"120","USGS","15294300","SKWENTNA R NR SKWENTNA AK","ST",61.87250918,-151.3691358,FALSE,2019-11-01 16:56:00,6
"121","USGS","15239500","FRITZ C NR HOMER AK","ST",59.7077277,-151.3451837,FALSE,2019-11-01 16:56:00,5
"122","USGS","15862500","UBLUTUOCH R 13.7 MI AB MOUTH NR NUIQSUT AK","ST",70.2426556,-151.2949472,FALSE,2019-11-01 16:56:00,10
"123","USGS","15242000","KASILOF R NR KASILOF AK","ST",60.3174767,-151.2619378,FALSE,2019-11-01 16:56:00,5
"124","USGS","15294450","CHUITNA R NR TYONEK AK","ST",61.1080511,-151.2541815,FALSE,2019-11-01 16:56:00,5
"125","USGS","15266500","BEAVER C NR KENAI AK","ST",60.5633189,-151.1197277,FALSE,2019-11-01 16:56:00,5
"126","USGS","15267000","BISHOP C NR KENAI AK","ST",60.7758254,-151.098346,FALSE,2019-11-01 16:56:00,5
"127","USGS","15266300","KENAI R AT SOLDOTNA AK","ST",60.4769289,-151.0816675,FALSE,2019-11-01 16:56:00,5
"128","USGS","15238984","SF BATTLE C NR HOMER AK","ST",59.7521805,-150.9560085,FALSE,2019-11-01 16:56:00,5
"129","USGS","15238985","BATTLE C NR TIDEWATER NR HOMER AK","ST",59.7549584,-150.9554535,FALSE,2019-11-01 16:56:00,5
"130","USGS","15238986","BATTLE C 1.0 MI AB MOUTH NR HOMER AK","ST",59.76173646,-150.955177,FALSE,2019-11-01 16:56:00,5
"131","USGS","15880000","COLVILLE R NR NUIQSUT AK","ST",70.1652244,-150.9197605,FALSE,2019-11-01 16:56:00,10
"132","USGS","15238982","BATTLE C BL GLACIER NR HOMER AK","ST",59.73801597,-150.8990619,FALSE,2019-11-01 16:56:00,5
"133","USGS","15239070","BRADLEY R NR TIDEWATER NR HOMER AK","ST",59.80107399,-150.8849079,FALSE,2019-11-01 16:56:00,5
"134","USGS","15564885","JIM R NR BETTLES AK","ST",66.7856545,-150.8757375,FALSE,2019-11-01 16:56:00,8
"135","USGS","15239060","MF BRADLEY R BL NF BRADLEY R NR HOMER AK","ST",59.79774138,-150.8654632,FALSE,2019-11-01 16:56:00,5
"136","USGS","15239001","BRADLEY R BL DAM NR HOMER AK","ST",59.7577407,-150.8526778,FALSE,2019-11-01 16:56:00,5
"137","USGS","15238978","BATTLE C DIV AB BRADLEY LK NR HOMER AK","ST",59.7452409,-150.8415645,FALSE,2019-11-01 16:56:00,5
"138","USGS","15239050","MF BRADLEY R NR HOMER AK","ST",59.77774568,-150.7562948,FALSE,2019-11-01 16:56:00,5
"139","USGS","15238648","UPPER NUKA R NR PARK BOUNDARY NR HOMER AK","ST",59.6838574,-150.7054468,FALSE,2019-11-01 16:56:00,5
"140","USGS","15238990","UPPER BRADLEY R NR NUKA GLACIER NR HOMER AK","ST",59.6999688,-150.704616,FALSE,2019-11-01 16:56:00,5
"141","USGS","15238653","NUKA R NR TIDEWATER NR HOMER AK","ST",59.59913537,-150.6798797,FALSE,2019-11-01 16:56:00,5
"142","USGS","15294345","YENTNA R NR SUSITNA STATION AK","ST",61.6980747,-150.6527885,FALSE,2019-11-01 16:56:00,6
"143","USGS","15266150","KENAI R BL MOUTH OF KILLEY R NR STERLING AK","ST",60.4905439,-150.6327592,FALSE,2019-11-01 16:56:00,5
"144","USGS","15266110","KENAI R BL SKILAK LK OUTLET NR STERLING AK","ST",60.466099,-150.60109,FALSE,2019-11-01 16:56:00,5
"145","USGS","15294080","KROTO CREEK AT OILWELL ROAD NEAR TRAPPER CREEK AK","ST",62.1328333,-150.5386667,FALSE,2019-11-01 16:56:00,6
"146","USGS","15294350","SUSITNA R AT SUSITNA STATION AK","ST",61.5441796,-150.5147329,FALSE,2019-11-01 16:56:00,6
"147","USGS","15294100","DESHKA R NR WILLOW AK","ST",61.7675212,-150.3391832,FALSE,2019-11-01 16:56:00,6
"148","USGS","15292400","CHULITNA R NR TALKEETNA AK","ST",62.55810837,-150.23616,FALSE,2019-11-01 16:56:00,6
"149","USGS","671529150110500","SLATE C NR WISEMAN AK","ST",67.25762319,-150.1874506,FALSE,2019-11-01 16:56:00,8
"150","USGS","15564879","SLATE C AT COLDFOOT AK","ST",67.2544444,-150.1772222,FALSE,2019-11-01 16:56:00,8
"151","USGS","15468000","YUKON R AT RAMPART AK","ST",65.5064729,-150.1733608,FALSE,2019-11-01 16:56:00,8
"152","USGS","15292780","SUSITNA R AT SUNSHINE AK","ST",62.1748474,-150.1726719,FALSE,2019-11-01 16:56:00,6
"153","USGS","15564877","WISEMAN C AT WISEMAN AK","ST",67.41012938,-150.1085756,FALSE,2019-11-01 16:56:00,9
"154","USGS","15293700","L WILLOW C NR KASHWITNA AK","ST",61.80974586,-150.0972379,FALSE,2019-11-01 16:56:00,6
"155","USGS","15564875","MF KOYUKUK R NR WISEMAN AK","ST",67.4379087,-150.0777446,FALSE,2019-11-01 16:56:00,9
"156","USGS","15293200","KASHWITNA R NR WILLOW AK","ST",61.92388889,-150.0713889,FALSE,2019-11-01 16:56:00,6
"157","USGS","15292800","MONTANA C NR MONTANA AK","ST",62.1047619,-150.0597486,FALSE,2019-11-01 16:56:00,6
"158","USGS","15292700","TALKEETNA R NR TALKEETNA AK","ST",62.3464388,-150.019201,FALSE,2019-11-01 16:56:00,6
"159","USGS","15264000","RUSSIAN R NR COOPER LANDING AK","ST",60.4521863,-149.9868558,FALSE,2019-11-01 16:56:00,5
"160","USGS","15294010","DECEPTION C NR WILLOW AK","ST",61.7472447,-149.9394563,FALSE,2019-11-01 16:56:00,6
"161","USGS","15274600","CAMPBELL C NR SPENARD AK","ST",61.1388906,-149.9255337,FALSE,2019-11-01 16:56:00,5
"162","USGS","15275100","CHESTER C AT ARCTIC BOULEVARD AT ANCHORAGE AK","ST",61.20472578,-149.8974826,FALSE,2019-11-01 16:56:00,5
"163","USGS","15294005","WILLOW C NR WILLOW AK","ST",61.78030346,-149.8866786,FALSE,2019-11-01 16:56:00,6
"164","USGS","15261000","COOPER C AT MOUTH NR COOPER LANDING AK","ST",60.4799795,-149.882711,FALSE,2019-11-01 16:56:00,5
"165","USGS","15274550","L CAMPBELL C AT NATHAN DR NR ANCHORAGE AK","ST",61.1530576,-149.873865,FALSE,2019-11-01 16:56:00,5
"166","USGS","15276650","DITCH ON ELMENDORF AFB AK","ST",61.2397265,-149.8605376,FALSE,2019-11-01 16:56:00,5
"167","USGS","675538149511100","KUYUKTUVUK C 1MI AB DIETRICH R NR WISEMAN AK","ST",67.92681809,-149.8558412,FALSE,2019-11-01 16:56:00,9
"168","USGS","15260500","STETSON C NR COOPER LANDING AK","ST",60.44108027,-149.853531,FALSE,2019-11-01 16:56:00,5
"169","USGS","15276570","SHIP C BL POWER PLANT AT ELMENDORF AFB AK","ST",61.2241709,-149.8463696,FALSE,2019-11-01 16:56:00,5
"170","USGS","15275000","CHESTER C AT ANCHORAGE AK","ST",61.1991705,-149.8374787,FALSE,2019-11-01 16:56:00,5
"171","USGS","15273105","RABBIT C AT NEW SEWARD HIGHWAY AT ANCHORAGE AK","ST",61.07583436,-149.829136,FALSE,2019-11-01 16:56:00,5
"172","USGS","15273050","RABBIT C AT ANCHORAGE AK","ST",61.08111229,-149.827192,FALSE,2019-11-01 16:56:00,5
"173","USGS","15273045","RABBIT C AT OLD SEWARD HWY NR ANCHORAGE AK","ST",61.08361237,-149.8258032,FALSE,2019-11-01 16:56:00,5
"174","USGS","15260000","COOPER C NR COOPER LANDING AK","ST",60.43416667,-149.8238889,FALSE,2019-11-01 16:56:00,5
"175","USGS","15273102","L RABBIT C AT ANCHORAGE AK","ST",61.07639008,-149.8152469,FALSE,2019-11-01 16:56:00,5
"176","USGS","15258000","KENAI R AT COOPER LANDING AK","ST",60.49219269,-149.8099203,FALSE,2019-11-01 16:56:00,5
"177","USGS","15276500","SHIP C AT ELMENDORF AFB NR ANCHORAGE AK","ST",61.238339,-149.792203,FALSE,2019-11-01 16:56:00,5
"178","USGS","15274000","SF CAMPBELL C NR ANCHORAGE AK","ST",61.16667096,-149.7727527,FALSE,2019-11-01 16:56:00,5
"179","USGS","15274300","NF CAMPBELL C NR ANCHORAGE AK","ST",61.1688934,-149.7641416,FALSE,2019-11-01 16:56:00,5
"180","USGS","15273095","L RABBIT C AB GOLDENVIEW DR AT ANCHORAGE AK","ST",61.0822242,-149.7635793,FALSE,2019-11-01 16:56:00,5
"181","USGS","15276320","SHIP C BL FISH HATCHERY NR ANCHORAGE AK","ST",61.2427846,-149.7241469,FALSE,2019-11-01 16:56:00,5
"182","USGS","15273900","SF CAMPBELL C AT CANYON MTH NR ANCHORAGE AK","ST",61.1472256,-149.7221956,FALSE,2019-11-01 16:56:00,5
"183","USGS","15453500","YUKON R NR STEVENS VILLAGE AK","ST",65.8751013,-149.7203487,FALSE,2019-11-01 16:56:00,8
"184","USGS","15274798","SB SF CHESTER C NR E20TH AVE AT ANCHORAGE AK","ST",61.2052832,-149.7174776,FALSE,2019-11-01 16:56:00,5
"185","USGS","15276200","SHIP C AT GLENN HWY NR ANCHORAGE AK","ST",61.23834008,-149.6980353,FALSE,2019-11-01 16:56:00,5
"186","USGS","15292000","SUSITNA R AT GOLD CREEK AK","ST",62.7672899,-149.6933794,FALSE,2019-11-01 16:56:00,6
"187","USGS","15254000","CRESCENT C NR COOPER LANDING AK","ST",60.49636596,-149.679368,FALSE,2019-11-01 16:56:00,5
"188","USGS","15268000","RESURRECTION C AT HOPE AK","ST",60.9202635,-149.646618,FALSE,2019-11-01 16:56:00,5
"189","USGS","15267900","RESURRECTION C NR HOPE AK","ST",60.89387199,-149.639116,FALSE,2019-11-01 16:56:00,5
"190","USGS","15276000","SHIP C NR ANCHORAGE AK","ST",61.22500619,-149.6372008,FALSE,2019-11-01 16:56:00,5
"191","USGS","15253000","CRESCENT C NR MOOSE PASS AK","ST",60.4785893,-149.5757544,FALSE,2019-11-01 16:56:00,5
"192","USGS","15277100","EAGLE R AT EAGLE RIVER AK","ST",61.3072335,-149.5611017,FALSE,2019-11-01 16:56:00,5
"193","USGS","15518350","TEKLANIKA R NR LIGNITE AK","ST",63.92008579,-149.4998166,FALSE,2019-11-01 16:56:00,7
"194","USGS","15277410","PETERS C NR BIRCHWOOD AK","ST",61.41834717,-149.4911023,FALSE,2019-11-01 16:56:00,6
"195","USGS","1523849020","LOWELL C AB CITY WELLS AT SEWARD AK","ST",60.0991593,-149.46631,FALSE,2019-11-01 16:56:00,5
"196","USGS","15238600","SPRUCE C NR SEWARD AK","ST",60.0688812,-149.4543636,FALSE,2019-11-01 16:56:00,5
"197","USGS","15238500","LOWELL C AT SEWARD AK","ST",60.0980485,-149.4451989,FALSE,2019-11-01 16:56:00,5
"198","USGS","15271000","SIXMILE C NR HOPE AK","ST",60.82027267,-149.427443,FALSE,2019-11-01 16:56:00,5
"199","USGS","15237700","RESURRECTION R AT SEWARD AK","ST",60.1411054,-149.418813,FALSE,2019-11-01 16:56:00,5
"200","USGS","15286000","COTTONWOOD C NR WASILLA AK","ST",61.5744617,-149.4119428,FALSE,2019-11-01 16:56:00,6
"201","USGS","15904800","ATIGUN R NR PUMP STATION 4 AK","ST",68.2146132,-149.406411,FALSE,2019-11-01 16:56:00,9
"202","USGS","15237730","GROUSE C AT GROUSE LK OUTLET NR SEWARD AK","ST",60.19777389,-149.3754835,FALSE,2019-11-01 16:56:00,5
"203","USGS","15248000","TRAIL R NR LAWING AK","ST",60.4330358,-149.3740777,FALSE,2019-11-01 16:56:00,5
"204","USGS","15905100","ATIGUN R BL GALBRAITH LK NR PUMP STATION 4 AK","ST",68.4522222,-149.3733333,FALSE,2019-11-01 16:56:00,9
"205","USGS","15280200","EKLUTNA R AT OLD GLENN HWY AT EKLUTNA AK","ST",61.44973908,-149.3694387,FALSE,2019-11-01 16:56:00,6
"206","USGS","15244000","PTARMIGAN C AT LAWING AK","ST",60.4049865,-149.3646413,FALSE,2019-11-01 16:56:00,5
"207","USGS","15246000","GRANT C NR MOOSE PASS AK","ST",60.4563631,-149.3562898,FALSE,2019-11-01 16:56:00,5
"208","USGS","15243900","SNOW R NR SEWARD AK","ST",60.2944395,-149.3460397,FALSE,2019-11-01 16:56:00,5
"209","USGS","15237800","BEAR C TR NR SEWARD AK","ST",60.19249607,-149.3410375,FALSE,2019-11-01 16:56:00,5
"210","USGS","15904900","ATIGUN R TR NR PUMP STATION 4 AK","ST",68.3732281,-149.3161257,FALSE,2019-11-01 16:56:00,9
"211","USGS","15518300","NENANA R NR REX AK","ST",64.2175873,-149.2801348,FALSE,2019-11-01 16:56:00,7
"212","USGS","15243500","SNOW R NR DIVIDE AK","ST",60.3008239,-149.2382498,FALSE,2019-11-01 16:56:00,5
"213","USGS","15290000","L SUSITNA R NR PALMER AK","ST",61.7097433,-149.231938,FALSE,2019-11-01 16:56:00,6
"214","USGS","15285000","WASILLA C NR PALMER AK","ST",61.64307278,-149.1983305,FALSE,2019-11-01 16:56:00,6
"215","USGS","15272550","GLACIER C AT GIRDWOOD AK","ST",60.9408229,-149.1643969,FALSE,2019-11-01 16:56:00,5
"216","USGS","15280000","EKLUTNA C NR PALMER AK","ST",61.4036255,-149.143881,FALSE,2019-11-01 16:56:00,6
"217","USGS","15272502","GLACIER C AT ALYESKA HIGHWAY AT GIRDWOOD, AK","ST",60.9616194,-149.1319194,FALSE,2019-11-01 16:56:00,5
"218","USGS","15457800","HESS C NR LIVENGOOD AK","ST",65.66483428,-149.0989254,FALSE,2019-11-01 16:56:00,8
"219","USGS","15906000","SAGAVANIRKTOK R TRIB NR PUMP STA 3 AK","ST",68.6865738,-149.0977902,FALSE,2019-11-01 16:56:00,9
"220","USGS","15515500","TANANA R AT NENANA AK","ST",64.5649444,-149.094,FALSE,2019-11-01 16:56:00,7
"221","USGS","15284000","MATANUSKA R AT PALMER AK","ST",61.6086312,-149.0730432,FALSE,2019-11-01 16:56:00,6
"222","USGS","654022149035900","HESS C AB FISH C NR LIVENGOOD AK","ST",65.6723353,-149.0689257,FALSE,2019-11-01 16:56:00,8
"223","USGS","15283700","MOOSE C NR PALMER AK","ST",61.68438889,-149.0524167,FALSE,2019-11-01 16:56:00,6
"224","USGS","15280999","PALMER (BODENBURG) C AT E DILLY AVE NR PALMER AK","ST",61.52338889,-149.0418889,FALSE,2019-11-01 16:56:00,6
"225","USGS","15281000","KNIK R NR PALMER AK","ST",61.5044605,-149.032765,FALSE,2019-11-01 16:56:00,6
"226","USGS","15518080","LIGNITE C AB MOUTH NR HEALY AK","ST",63.90426299,-148.9859325,FALSE,2019-11-01 16:56:00,7
"227","USGS","15277800","WF EKLUTNA C NR PALMER AK","ST",61.2977883,-148.9758236,FALSE,2019-11-01 16:56:00,5
"228","USGS","15896000","KUPARUK R NR DEADHORSE AK","ST",70.28138539,-148.962786,FALSE,2019-11-01 16:56:00,10
"229","USGS","15518040","NENANA R AT HEALY AK","ST",63.85370837,-148.9578719,FALSE,2019-11-01 16:56:00,7
"230","USGS","15277600","EF EKLUTNA C NR PALMER AK","ST",61.3116786,-148.9555469,FALSE,2019-11-01 16:56:00,5
"231","USGS","15518000","NENANA R NR HEALY AK","ST",63.8448197,-148.9459267,FALSE,2019-11-01 16:56:00,7
"232","USGS","15272380","TWENTYMILE R BL GLACIER R NR PORTAGE AK","ST",60.8974833,-148.9241074,FALSE,2019-11-01 16:56:00,5
"233","USGS","15236900","WOLVERINE C NR LAWING AK","ST",60.36995858,-148.8987624,FALSE,2019-11-01 16:56:00,5
"234","USGS","635104148525900","HEALY C NR SUNTRANA AK","ST",63.8506541,-148.885372,FALSE,2019-11-01 16:56:00,7
"235","USGS","15518020","HEALY C AT SUNTRANA AK","ST",63.8523216,-148.8428722,FALSE,2019-11-01 16:56:00,7
"236","USGS","15272280","PORTAGE C AT PORTAGE LK OUTLET NR WHITTIER AK","ST",60.78471779,-148.8410319,FALSE,2019-11-01 16:56:00,5
"237","USGS","15908000","SAGAVANIRKTOK R NR PUMP STA 3 AK","ST",69.0158333,-148.8177778,FALSE,2019-11-01 16:56:00,9
"238","USGS","15516000","NENANA R NR WINDY AK","ST",63.457319,-148.8053397,FALSE,2019-11-01 16:56:00,7
"239","USGS","15910000","SAGAVANIRKTOK R NR SAGWON AK","ST",69.0896529,-148.7622664,FALSE,2019-11-01 16:56:00,9
"240","USGS","15515048","MARGUERITE C 3.6 MI AB EMMA C NR HEALY AK","ST",63.97388889,-148.761111,FALSE,2019-11-01 16:56:00,7
"241","USGS","15515060","MARGUERITE C AB EMMA C NR HEALY AK","ST",64.0084337,-148.7281673,FALSE,2019-11-01 16:56:00,7
"242","USGS","15515080","EMMA C NR HEALY AK","ST",64.01121149,-148.727612,FALSE,2019-11-01 16:56:00,7
"243","USGS","15237000","NELLIE JUAN R NR HUNTER AK","ST",60.4216016,-148.727082,FALSE,2019-11-01 16:56:00,5
"244","USGS","15236210","WHITTIER C AT WHITTIER AK","ST",60.7721972,-148.690673,FALSE,2019-11-01 16:56:00,5
"245","USGS","15519150","WF TOLOVANA R NR LIVENGOOD AK","ST",65.4662288,-148.6691702,FALSE,2019-11-01 16:56:00,8
"246","USGS","15519100","TOLOVANA R BL ROSEBUD C NR LIVENGOOD AK","ST",65.4648407,-148.6311143,FALSE,2019-11-01 16:56:00,8
"247","USGS","15896700","PUTULIGAYUK R NR DEADHORSE AK","ST",70.2672257,-148.6310988,FALSE,2019-11-01 16:56:00,10
"248","USGS","15291700","SUSITNA R AB TSUSENA C NR CHULITNA AK","ST",62.8233333,-148.6047222,FALSE,2019-11-01 16:56:00,6
"249","USGS","15519030","LIVENGOOD C AT LIVENGOOD AK","ST",65.5229722,-148.5463889,FALSE,2019-11-01 16:56:00,8
"250","USGS","15280900","GLACIER FORK KNIK R NR PALMER AK","ST",61.41905299,-148.445558,FALSE,2019-11-01 16:56:00,6
"251","USGS","15457790","GOLDSTREAM C BL ALABAM C NR LIVENGOOD AK","ST",65.574,-148.3878556,FALSE,2019-11-01 16:56:00,8
"252","USGS","15518900","TOLOVANA R NR LIVENGOOD AK","ST",65.47151429,-148.2688894,FALSE,2019-11-01 16:56:00,8
"253","USGS","15515800","SEATTLE C NR CANTWELL AK","ST",63.32510049,-148.2492169,FALSE,2019-11-01 16:56:00,6
"254","USGS","15236000","HOBO C NR WHITTIER AK","ST",60.96108947,-148.240688,FALSE,2019-11-01 16:56:00,5
"255","USGS","15514500","WOOD R NR FAIRBANKS AK","ST",64.4345581,-148.2151606,FALSE,2019-11-01 16:56:00,7
"256","USGS","15237020","MAIN BAY C NR PORT NELLIE JUAN AK","ST",60.5183108,-148.0942899,FALSE,2019-11-01 16:56:00,5
"257","USGS","15237360","SAN JUAN R NR SEWARD AK","ST",59.8173989,-147.885369,FALSE,2019-11-01 16:56:00,5
"258","USGS","15485500","TANANA R AT FAIRBANKS AK","ST",64.792344,-147.8413097,FALSE,2019-11-01 16:56:00,7
"259","USGS","15514000","CHENA R AT FAIRBANKS AK","ST",64.8454026,-147.703536,FALSE,2019-11-01 16:56:00,7
"260","USGS","15282000","CARIBOU C NR SUTTON AK","ST",61.8028244,-147.6847068,FALSE,2019-11-01 16:56:00,6
"261","USGS","15512800","CHENA R AT APPLE RD AT FAIRBANKS AK","ST",64.8409597,-147.6229793,FALSE,2019-11-01 16:56:00,7
"262","USGS","15535000","CARIBOU C NR CHATANIKA AK","ST",65.1495756,-147.553847,FALSE,2019-11-01 16:56:00,7
"263","USGS","15291500","SUSITNA R NR CANTWELL AK","ST",62.6981532,-147.5472168,FALSE,2019-11-01 16:56:00,6
"264","USGS","15291000","SUSITNA R NR DENALI AK","ST",63.10343837,-147.5180902,FALSE,2019-11-01 16:56:00,6
"265","USGS","15534900","POKER C NR CHATANIKA AK","ST",65.158467,-147.4827359,FALSE,2019-11-01 16:56:00,7
"266","USGS","15534800","CHATANIKA R AB POKER C NR CHATANIKA AK","ST",65.1409668,-147.4580118,FALSE,2019-11-01 16:56:00,7
"267","USGS","15512000","CHENA SL NR FAIRBANKS AK","ST",64.82040777,-147.43992,FALSE,2019-11-01 16:56:00,7
"268","USGS","15281500","CAMP C NR SHEEP MT LODGE AK","ST",61.83837366,-147.4108033,FALSE,2019-11-01 16:56:00,6
"269","USGS","15511000","L CHENA R NR FAIRBANKS AK","ST",64.88568988,-147.2496477,FALSE,2019-11-01 16:56:00,7
"270","USGS","15493700","CHENA R BL MOOSE C DAM AK","ST",64.8004119,-147.2301929,FALSE,2019-11-01 16:56:00,7
"271","USGS","644800147134000","CHENA R SITE 1 NR NORTH POLE AK","ST",64.79957858,-147.2301928,FALSE,2019-11-01 16:56:00,7
"272","USGS","644816147123500","CHENA R SITE 2 NR NORTH POLE AK","ST",64.80402348,-147.2121375,FALSE,2019-11-01 16:56:00,7
"273","USGS","644755147120000","CHENA R SITE 3 NR NORTH POLE AK","ST",64.7981903,-147.2024145,FALSE,2019-11-01 16:56:00,7
"274","USGS","15493500","CHENA R NR N POLE AK","ST",64.7959681,-147.201303,FALSE,2019-11-01 16:56:00,7
"275","USGS","644740147113000","CHENA R SITE 4 NR NORTH POLE AK","ST",64.7940238,-147.1940805,FALSE,2019-11-01 16:56:00,7
"276","USGS","15389500","CHANDALAR R NR VENETIE AK","ST",67.09656617,-147.1871195,FALSE,2019-11-01 16:56:00,8
"277","USGS","644710147101500","CHENA R SITE 5 NR NORTH POLE AK","ST",64.78569087,-147.1732459,FALSE,2019-11-01 16:56:00,7
"278","USGS","644735147094500","CHENA R SITE 6 NR NORTH POLE AK","ST",64.79263557,-147.1649133,FALSE,2019-11-01 16:56:00,7
"279","USGS","644835147075500","CHENA R SITE 7 NR NORTH POLE AK","ST",64.8093031,-147.1343592,FALSE,2019-11-01 16:56:00,7
"280","USGS","644855147071000","CHENA R SITE 8 NR NORTH POLE AK","ST",64.814859,-147.1218597,FALSE,2019-11-01 16:56:00,7
"281","USGS","15485200","GARRISON SL AT EIELSON AFB AK","ST",64.7037467,-147.1204583,FALSE,2019-11-01 16:56:00,7
"282","USGS","644925147065500","CHENA R SITE 9 NR NORTH POLE AK","ST",64.8231925,-147.1176939,FALSE,2019-11-01 16:56:00,7
"283","USGS","15485000","MOOSE C AT EIELSON AFB AK","ST",64.7134691,-147.1149038,FALSE,2019-11-01 16:56:00,7
"284","USGS","644935147045000","CHENA R BL MULLEN SL NR EIELSON AFB AK","ST",64.825971,-147.0829716,FALSE,2019-11-01 16:56:00,7
"285","USGS","644958147035000","CHENA R SITE 10 NR NORTH POLE AK","ST",64.8323603,-147.0663055,FALSE,2019-11-01 16:56:00,7
"286","USGS","645005147025500","CHENA R SITE 11 NR NORTH POLE AK","ST",64.83430508,-147.0510278,FALSE,2019-11-01 16:56:00,7
"287","USGS","644945147013500","CHENA R SITE 12 NR NORTH POLE AK","ST",64.8287499,-147.0288047,FALSE,2019-11-01 16:56:00,7
"288","USGS","15484000","SALCHA R NR SALCHAKET AK","ST",64.47152778,-146.9280556,FALSE,2019-11-01 16:56:00,7
"289","USGS","15493400","CHENA R BL HUNTS C NR TWO RIVERS AK","ST",64.8595879,-146.8057505,FALSE,2019-11-01 16:56:00,7
"290","USGS","15452300","BEAVER C NR MICHEL LK NR BEAVER AK","ST",66.2212817,-146.7647463,FALSE,2019-11-01 16:56:00,8
"291","USGS","642910146390000","SALCHA R 8MI AB GAGE NR SALCHAKET AK","ST",64.4856973,-146.6523757,FALSE,2019-11-01 16:56:00,7
"292","USGS","15452100","BEAVER C AB VICTORIA C NR BEAVER AK","ST",65.805163,-146.6511339,FALSE,2019-11-01 16:56:00,8
"293","USGS","15224000","DUCK R NR TIDEWATER NR VALDEZ AK","ST",60.9439062,-146.563121,FALSE,2019-11-01 16:56:00,5
"294","USGS","15291200","MACLAREN R NR PAXSON AK","ST",63.1190095,-146.5314208,FALSE,2019-11-01 16:56:00,6
"295","USGS","15223900","DUCK R AT SILVER LK OUTLET NR VALDEZ AK","ST",60.94918598,-146.5292316,FALSE,2019-11-01 16:56:00,5
"296","USGS","15532000","CHATANIKA R NR CHENA HOT SPRINGS AK","ST",65.2884898,-146.3899599,FALSE,2019-11-01 16:56:00,7
"297","USGS","15955000","CANNING R AB STAINES R NR DEADHORSE AK","ST",69.8817052,-146.3886988,FALSE,2019-11-01 16:56:00,10
"298","USGS","15493000","CHENA R NR TWO RIVERS AK","ST",64.9019722,-146.3613333,FALSE,2019-11-01 16:56:00,7
"299","USGS","15225945","ALLISON C AB MOUTH NR VALDEZ AK","ST",61.08114167,-146.3536839,FALSE,2019-11-01 16:56:00,5
"300","USGS","15225998","SOLOMON GULCH BYPASS NR VALDEZ AK","ST",61.0825319,-146.3059048,FALSE,2019-11-01 16:56:00,5
"301","USGS","15226000","SOLOMON GULCH NR VALDEZ AK","ST",61.0833653,-146.3056272,FALSE,2019-11-01 16:56:00,5
"302","USGS","15225997","SOLOMON GULCH AT TOP OF FALLS NR VALDEZ AK","ST",61.0786427,-146.3050704,FALSE,2019-11-01 16:56:00,5
"303","USGS","15225996","SOLOMON GULCH TAILRACE NR VALDEZ AK","ST",61.08308748,-146.3047938,FALSE,2019-11-01 16:56:00,5
"304","USGS","15219000","WF OLSEN BAY C NR CORDOVA AK","ST",60.7608659,-146.174225,FALSE,2019-11-01 16:56:00,5
"305","USGS","15227090","VALDEZ GLACIER R AT VALDEZ GLACIER LK NR VALDEZ AK","ST",61.14888889,-146.1715833,FALSE,2019-11-01 16:56:00,5
"306","USGS","15226620","LOWE R AB HORSETAIL FALLS NR VALDEZ AK","ST",61.0670833,-145.906111,FALSE,2019-11-01 16:56:00,5
"307","USGS","15226600","LOWE R IN KEYSTONE CANYON NR VALDEZ AK","ST",61.0894868,-145.8895257,FALSE,2019-11-01 16:56:00,5
"308","USGS","15226500","LOWE R NR VALDEZ AK","ST",61.0964322,-145.8609153,FALSE,2019-11-01 16:56:00,5
"309","USGS","15478000","TANANA R AT BIG DELTA AK","ST",64.1551574,-145.8523388,FALSE,2019-11-01 16:56:00,7
"310","USGS","15215990","NICOLET C NR CORDOVA AK","ST",60.5186253,-145.7917173,FALSE,2019-11-01 16:56:00,5
"311","USGS","15215992","HENEY C AT CANYON MOUTH NR CORDOVA AK","ST",60.52335006,-145.7633808,FALSE,2019-11-01 16:56:00,5
"312","USGS","15216008","MURCHISON C NR CORDOVA AK","ST",60.5364038,-145.716152,FALSE,2019-11-01 16:56:00,5
"313","USGS","15392000","BIRCH C AB TWELVEMILE C NR MILLER HOUSE AK","ST",65.3921157,-145.7149559,FALSE,2019-11-01 16:56:00,8
"314","USGS","15216100","HUMPBACK C NR CORDOVA AK","ST",60.6108405,-145.6786214,FALSE,2019-11-01 16:56:00,5
"315","USGS","15216003","MIDDLE ARM EYAK LK TR NR CORDOVA AK","ST",60.5575101,-145.6308655,FALSE,2019-11-01 16:56:00,5
"316","USGS","15216000","POWER C NR CORDOVA AK","ST",60.58667537,-145.620022,FALSE,2019-11-01 16:56:00,5
"317","USGS","15960000","TAMAYARIAK R NR KAKTOVIK AK","ST",69.8650563,-145.5955922,FALSE,2019-11-01 16:56:00,10
"318","USGS","15200280","GULKANA R AT SOURDOUGH AK","ST",62.5203918,-145.5330154,FALSE,2019-11-01 16:56:00,6
"319","USGS","15478040","PHELAN C NR PAXSON AK","ST",63.24027778,-145.4680556,FALSE,2019-11-01 16:56:00,6
"320","USGS","15477500","CLEARWATER C NR DELTA JCT AK","ST",64.05572009,-145.4401033,FALSE,2019-11-01 16:56:00,7
"321","USGS","15202000","TAZLINA R NR GLENNALLEN AK","ST",62.05508477,-145.4282607,FALSE,2019-11-01 16:56:00,6
"322","USGS","15215900","GLACIER R TRIB NR CORDOVA AK","ST",60.5327973,-145.3806148,FALSE,2019-11-01 16:56:00,5
"323","USGS","15200000","GAKONA R AT GAKONA AK","ST",62.30121279,-145.3077114,FALSE,2019-11-01 16:56:00,6
"324","USGS","15206000","KLUTINA R AT COPPER CENTER AK","ST",61.9523018,-145.3076939,FALSE,2019-11-01 16:56:00,6
"325","USGS","15208000","TONSINA R AT TONSINA AK","ST",61.66090357,-145.186003,FALSE,2019-11-01 16:56:00,6
"326","USGS","15208100","SQUIRREL C AT TONSINA AK","ST",61.66757058,-145.1760035,FALSE,2019-11-01 16:56:00,6
"327","USGS","15207800","L TONSINA R NR TONSINA AK","ST",61.47978829,-145.1534817,FALSE,2019-11-01 16:56:00,6
"328","USGS","15389100","PORCUPINE R 9.5MI AB MOUTH NR FORT YUKON AK","ST",66.6514678,-145.0991477,FALSE,2019-11-01 16:56:00,8
"329","USGS","15976000","NERUOKPUKKOONGA C NR BARTER ISLAND AK","ST",69.3080663,-145.0277593,FALSE,2019-11-01 16:56:00,10
"330","USGS","15975000","CHAMBERLIN C NR BARTER ISLAND AK","ST",69.29139878,-144.9666464,FALSE,2019-11-01 16:56:00,9
"331","USGS","15477790","CENTRAL C NR BIG DELTA AK","ST",64.3765652,-144.9454017,FALSE,2019-11-01 16:56:00,7
"332","USGS","15477740","GOODPASTER R NR BIG DELTA AK","ST",64.4501744,-144.9445717,FALSE,2019-11-01 16:56:00,7
"333","USGS","15439800","BOULDER C NR CENTRAL AK","ST",65.5676935,-144.8894025,FALSE,2019-11-01 16:56:00,8
"334","USGS","15477730","LIESE C NR BIG DELTA AK","ST",64.4476748,-144.8854024,FALSE,2019-11-01 16:56:00,7
"335","USGS","15477761","U WEST C NR BIG DELTA AK","ST",64.416565,-144.8509555,FALSE,2019-11-01 16:56:00,7
"336","USGS","15477770","SONORA C NR BIG DELTA AK","ST",64.37739989,-144.8137305,FALSE,2019-11-01 16:56:00,7
"337","USGS","15477768","SONORA C AB TRIB NR BIG DELTA AK","ST",64.3890668,-144.7801189,FALSE,2019-11-01 16:56:00,7
"338","USGS","15214000","COPPER R AT MILLION DOLLAR BRIDGE NR CORDOVA AK","ST",60.6711432,-144.7467135,FALSE,2019-11-01 16:56:00,5
"339","USGS","15199500","SINONA C NR CHISTOCHINA AK","ST",62.5906967,-144.6488398,FALSE,2019-11-01 16:56:00,6
"340","USGS","15476400","DRY C NR DOT LK AK","ST",63.6918472,-144.5733902,FALSE,2019-11-01 16:56:00,7
"341","USGS","15212000","COPPER R NR CHITINA AK","ST",61.46507857,-144.4579232,FALSE,2019-11-01 16:56:00,6
"342","USGS","15476300","BERRY C NR DOT LK AK","ST",63.689351,-144.3653325,FALSE,2019-11-01 16:56:00,7
"343","USGS","15195000","DICK C NR CORDOVA AK","ST",60.3416822,-144.3047573,FALSE,2019-11-01 16:56:00,5
"344","USGS","15980000","HULAHULA R NR KAKTOVIK AK","ST",69.7036856,-144.2010893,FALSE,2019-11-01 16:56:00,10
"345","USGS","15211500","TEBAY R NR CHITINA AK","ST",61.2314725,-144.1992858,FALSE,2019-11-01 16:56:00,5
"346","USGS","15476000","TANANA R NR TANACROSS AK","ST",63.3879716,-143.748634,FALSE,2019-11-01 16:56:00,7
"347","USGS","15389000","PORCUPINE R NR FORT YUKON AK","ST",66.9902637,-143.1404436,FALSE,2019-11-01 16:56:00,8
"348","USGS","15209700","WF KENNICOTT R AT MCCARTHY AK","ST",61.43372656,-142.9426256,FALSE,2019-11-01 16:56:00,6
"349","USGS","15209800","EF KENNICOTT R AT MCCARTHY AK","ST",61.43400459,-142.9323478,FALSE,2019-11-01 16:56:00,6
"350","USGS","15209750","BONANZA C NR MC CARTHY AK","ST",61.4937294,-142.8837439,FALSE,2019-11-01 16:56:00,6
"351","USGS","15474000","TOK R NR TOK JUNCTION AK","ST",63.3246533,-142.836952,FALSE,2019-11-01 16:56:00,6
"352","USGS","15472000","TANANA R NR TOK JUNCTION AK","ST",63.31632337,-142.643894,FALSE,2019-11-01 16:56:00,6
"353","USGS","15310000","MOSQUITO FORK BL KECHUMSTUK C NR CHICKEN AK","ST",64.0161111,-142.5447222,FALSE,2019-11-01 16:56:00,7
"354","USGS","15310002","MOSQUITO FORK 2 MI BL KECHUMSTUK C NR CHICKEN AK","ST",64.0344444,-142.5283333,FALSE,2019-11-01 16:56:00,7
"355","USGS","15388070","KANDIK R BL THREEMILE C NR NATION AK","ST",65.3852429,-142.4471206,FALSE,2019-11-01 16:56:00,8
"356","USGS","15388060","KANDIK R NR NATION AK","ST",65.3952435,-142.430455,FALSE,2019-11-01 16:56:00,8
"357","USGS","15331000","MF FORTYMILE R NR MOUTH NR CHICKEN AK","ST",64.4708611,-142.2215,FALSE,2019-11-01 16:56:00,7
"358","USGS","15330000","NF FORTYMILE R AB MF NR FRANKLIN AK","ST",64.4668333,-142.21625,FALSE,2019-11-01 16:56:00,7
"359","USGS","15470000","CHISANA R AT NORTHWAY JCT AK","ST",63.0060583,-141.8069194,FALSE,2019-11-01 16:56:00,6
"360","USGS","15388030","NATION R NR NATION AK","ST",65.23943139,-141.6551518,FALSE,2019-11-01 16:56:00,7
"361","USGS","15320100","WADE C TRIB NR CHICKEN AK","ST",64.1180119,-141.5558947,FALSE,2019-11-01 16:56:00,7
"362","USGS","15348000","FORTYMILE R NR STEELE CREEK AK","ST",64.3088552,-141.4045168,FALSE,2019-11-01 16:56:00,7
"363","USGS","15356000","YUKON R AT EAGLE AK","ST",64.789168,-141.2000892,FALSE,2019-11-01 16:56:00,7
"364","USGS","15129600","OPHIR C NR YAKUTAT AK","ST",59.52358729,-139.7452729,FALSE,2019-11-01 16:56:00,5
"365","USGS","15129500","SITUK R NR YAKUTAT AK","ST",59.58636636,-139.4941877,FALSE,2019-11-01 16:56:00,5
"366","USGS","15129510","OLD SITUK R NR YAKUTAT AK","ST",59.5702565,-139.4400197,FALSE,2019-11-01 16:56:00,5
"367","USGS","15129280","ITALIO R AB MOUTH NR YAKUTAT AK","ST",59.30202778,-139.0456944,FALSE,2019-11-01 16:56:00,4
"368","USGS","15129120","ALSEK R AT DRY BAY NR YAKUTAT AK","ST",59.1928056,-138.3339167,FALSE,2019-11-01 16:56:00,4
"369","USGS","15129000","ALSEK R NR YAKUTAT AK","ST",59.39471189,-138.083688,FALSE,2019-11-01 16:56:00,5
"370","USGS","15106100","BLACK R NR PELICAN AK","ST",57.704905,-136.0946057,FALSE,2019-11-01 16:56:00,4
"371","USGS","15056560","KLEHINI R NR KLUKWAN AK","ST",59.412726,-135.998797,FALSE,2019-11-01 16:56:00,5
"372","USGS","15056400","CHILKAT R AT GORGE NR KLUKWAN AK","ST",59.6274637,-135.9337827,FALSE,2019-11-01 16:56:00,5
"373","USGS","15056500","CHILKAT R NR KLUKWAN AK","ST",59.41494719,-135.9310198,FALSE,2019-11-01 16:56:00,5
"374","USGS","15101200","KALININ BAY TR NR SITKA AK","ST",57.3035248,-135.7781746,FALSE,2019-11-01 16:56:00,3
"375","USGS","15057596","SALMON R AT GUSTAVUS AK","ST",58.44465728,-135.7418302,FALSE,2019-11-01 16:56:00,4
"376","USGS","15056280","UPPER CHILKOOT LK OUTLET NR HAINES AK","ST",59.4238424,-135.6626638,FALSE,2019-11-01 16:56:00,5
"377","USGS","15057580","KAHTAHEENA R AB UPPER FALLS NR GUSTAVUS AK","ST",58.4432745,-135.6020974,FALSE,2019-11-01 16:56:00,4
"378","USGS","15057590","KAHTAHEENA R NR GUSTAVUS AK","ST",58.42299689,-135.5998738,FALSE,2019-11-01 16:56:00,4
"379","USGS","15056200","WEST C NR SKAGWAY AK","ST",59.5260629,-135.3546086,FALSE,2019-11-01 16:56:00,5
"380","USGS","15056210","TAIYA R NR SKAGWAY AK","ST",59.5116183,-135.3462752,FALSE,2019-11-01 16:56:00,5
"381","USGS","15056070","DAYEBAS C NR HAINES AK","ST",59.2971728,-135.333496,FALSE,2019-11-01 16:56:00,4
"382","USGS","15087618","STARRIGAVAN C AT UPPER BRIDGE NR SITKA AK","ST",57.12491678,-135.3334277,FALSE,2019-11-01 16:56:00,3
"383","USGS","15087610","NAKWASINA R NR SITKA AK","ST",57.2599243,-135.3334275,FALSE,2019-11-01 16:56:00,3
"384","USGS","15107910","WF INDIAN R NR TENAKEE AK","ST",57.8657679,-135.327059,FALSE,2019-11-01 16:56:00,4
"385","USGS","15087735","INDIAN R DIV RETURN FLOW FROM SJC AT SITKA AK","ST",57.0510267,-135.3214865,FALSE,2019-11-01 16:56:00,3
"386","USGS","15087730","INDIAN R DIV TO SJC AT SAWMILL C RD AT SITKA AK","ST",57.053249,-135.3195419,FALSE,2019-11-01 16:56:00,3
"387","USGS","15087700","INDIAN R AT SITKA AK","ST",57.05297119,-135.3162085,FALSE,2019-11-01 16:56:00,3
"388","USGS","15056100","SKAGWAY R AT SKAGWAY AK","ST",59.4658333,-135.3041667,FALSE,2019-11-01 16:56:00,5
"389","USGS","15087690","INDIAN R NR SITKA AK","ST",57.06658247,-135.2967628,FALSE,2019-11-01 16:56:00,3
"390","USGS","15107920","INDIAN R NR TENAKEE AK","ST",57.83021318,-135.268446,FALSE,2019-11-01 16:56:00,4
"391","USGS","15088000","SAWMILL C NR SITKA AK","ST",57.0510267,-135.2295402,FALSE,2019-11-01 16:56:00,3
"392","USGS","15106980","TONALITE C NR TENAKEE AK","ST",57.6779902,-135.2231705,FALSE,2019-11-01 16:56:00,4
"393","USGS","15107000","KADASHAN R NR TENAKEE AK","ST",57.69493509,-135.2181689,FALSE,2019-11-01 16:56:00,4
"394","USGS","15106970","MIDDLE BASIN C NR TENAKEE AK","ST",57.69215748,-135.2034467,FALSE,2019-11-01 16:56:00,4
"395","USGS","15106920","KADASHAN R AB HOOK C NR TENAKEE AK","ST",57.662435,-135.1867819,FALSE,2019-11-01 16:56:00,4
"396","USGS","15056030","KAKUHAN C NR HAINES AK","ST",59.0049486,-135.185708,FALSE,2019-11-01 16:56:00,4
"397","USGS","15106960","HOOK C NR TENAKEE AK","ST",57.6724353,-135.1795588,FALSE,2019-11-01 16:56:00,4
"398","USGS","15056095","GOAT LK OUTLET NR SKAGWAY AK","ST",59.5266173,-135.1790528,FALSE,2019-11-01 16:56:00,5
"399","USGS","15088200","SILVER BAY TR AT BEAR COVE NR SITKA AK","ST",57.01880376,-135.1642635,FALSE,2019-11-01 16:56:00,3
"400","USGS","15106940","HOOK C AB TR NR TENAKEE AK","ST",57.6771584,-135.130113,FALSE,2019-11-01 16:56:00,4
"401","USGS","15090000","GREEN LK NR SITKA AK","ST",56.9868572,-135.1120413,FALSE,2019-11-01 16:56:00,3
"402","USGS","15108000","PAVLOF R NR TENAKEE AK","ST",57.8413277,-135.0376135,FALSE,2019-11-01 16:56:00,4
"403","USGS","15092000","MAKSOUTOF R NR PORT ALEXANDER AK","ST",56.506575,-134.96975,FALSE,2019-11-01 16:56:00,3
"404","USGS","15100510","STEPHENS C NR ANGOON AK","ST",57.35688267,-134.9475948,FALSE,2019-11-01 16:56:00,4
"405","USGS","15100500","NICHOLS C NR ANGOON AK","ST",57.3538272,-134.9425946,FALSE,2019-11-01 16:56:00,3
"406","USGS","15054600","BRIDGET COVE TR NR AUKE BAY AK","ST",58.6202339,-134.93735,FALSE,2019-11-01 16:56:00,4
"407","USGS","15099900","TAKATZ C AT TAKATZ LAKE OUTLET NR BARANOF AK","ST",57.1310482,-134.8875862,FALSE,2019-11-01 16:56:00,3
"408","USGS","15054990","DAVIES C NR AUKE BAY AK","ST",58.6513446,-134.8870692,FALSE,2019-11-01 16:56:00,4
"409","USGS","15100000","TAKATZ C NR BARANOF AK","ST",57.1427162,-134.8656418,FALSE,2019-11-01 16:56:00,3
"410","USGS","15098000","BARANOF R AT BARANOF AK","ST",57.08715856,-134.8434192,FALSE,2019-11-01 16:56:00,3
"411","USGS","15054200","HERBERT R NR AUKE BAY AK","ST",58.52356128,-134.7962379,FALSE,2019-11-01 16:56:00,4
"412","USGS","15101500","GREENS C NR JUNEAU AK","ST",58.08799687,-134.7487297,FALSE,2019-11-01 16:56:00,4
"413","USGS","15093600","EB LOVERS COVE C DIVERSION NR BIG PORT WALTER AK","ST",56.3921273,-134.7148299,FALSE,2019-11-01 16:56:00,3
"414","USGS","15055500","ANTLER R BL ANTLER LK NR AUKE BAY AK","ST",58.85162387,-134.710401,FALSE,2019-11-01 16:56:00,4
"415","USGS","15093200","BETTY LK OUTLET NR PORT ARMSTRONG AK","ST",56.2982345,-134.682327,FALSE,2019-11-01 16:56:00,3
"416","USGS","15094000","DEER LK OUTLET NR PORT ALEXANDER AK","ST",56.51907976,-134.671208,FALSE,2019-11-01 16:56:00,3
"417","USGS","15109048","PETERSON C BL NF NR AUKE BAY AK","ST",58.2830018,-134.6667836,FALSE,2019-11-01 16:56:00,4
"418","USGS","15093400","SASHIN C NR BIG PORT WALTER AK","ST",56.3751833,-134.6628775,FALSE,2019-11-01 16:56:00,3
"419","USGS","15054000","AUKE C AT AUKE BAY AK","ST",58.3818946,-134.6378955,FALSE,2019-11-01 16:56:00,4
"420","USGS","15101490","GREENS C AT GREENS CREEK MINE NR JUNEAU AK","ST",58.08299837,-134.6334448,FALSE,2019-11-01 16:56:00,4
"421","USGS","15053800","LAKE C AT AUKE BAY AK","ST",58.39411726,-134.6323398,FALSE,2019-11-01 16:56:00,4
"422","USGS","15052800","MONTANA C NR AUKE BAY AK","ST",58.397729,-134.6112276,FALSE,2019-11-01 16:56:00,4
"423","USGS","15109000","FISH C NR AUKE BAY AK","ST",58.33022717,-134.5906698,FALSE,2019-11-01 16:56:00,4
"424","USGS","15053200","DUCK C BL NANCY ST NR AUKE BAY AK","ST",58.3749514,-134.579003,FALSE,2019-11-01 16:56:00,4
"425","USGS","15052475","JORDAN C BL EGAN DR NR AUKE BAY AK","ST",58.3660622,-134.5778918,FALSE,2019-11-01 16:56:00,4
"426","USGS","15052500","MENDENHALL R NR AUKE BAY AK","ST",58.4293972,-134.5745592,FALSE,2019-11-01 16:56:00,4
"427","USGS","15052495","NUGGET C AB DIV NR AUKE BAY AK","ST",58.4232871,-134.5253896,FALSE,2019-11-01 16:56:00,4
"428","USGS","15108600","HILDA C NR DOUGLAS AK","ST",58.22689146,-134.4989966,FALSE,2019-11-01 16:56:00,4
"429","USGS","15052009","LEMON C NR MOUTH NR JUNEAU AK","ST",58.3655085,-134.4798306,FALSE,2019-11-01 16:56:00,4
"430","USGS","15051010","SALMON C NR JUNEAU AK","ST",58.33217378,-134.4676074,FALSE,2019-11-01 16:56:00,4
"431","USGS","15102200","FAVORITE C NR ANGOON AK","ST",57.44744387,-134.4614756,FALSE,2019-11-01 16:56:00,4
"432","USGS","15051008","SALMON C AB CANYON MOUTH NR JUNEAU AK","ST",58.3327294,-134.4578847,FALSE,2019-11-01 16:56:00,4
"433","USGS","15052000","LEMON C NR JUNEAU AK","ST",58.3913429,-134.4226062,FALSE,2019-11-01 16:56:00,4
"434","USGS","15108800","LAWSON C AT DOUGLAS AK","ST",58.28439416,-134.4128813,FALSE,2019-11-01 16:56:00,4
"435","USGS","15050000","GOLD C AT JUNEAU AK","ST",58.30661738,-134.403159,FALSE,2019-11-01 16:56:00,4
"436","USGS","15049900","GOLD C NR JUNEAU AK","ST",58.3068952,-134.388436,FALSE,2019-11-01 16:56:00,4
"437","USGS","15048000","SHEEP C NR JUNEAU AK","ST",58.2746725,-134.3156547,FALSE,2019-11-01 16:56:00,4
"438","USGS","15102000","HASSELBORG C NR ANGOON AK","ST",57.660774,-134.2503567,FALSE,2019-11-01 16:56:00,4
"439","USGS","15046000","GRINDSTONE C NR JUNEAU AK","ST",58.20828306,-134.1778682,FALSE,2019-11-01 16:56:00,4
"440","USGS","15044000","CARLSON C NR JUNEAU AK","ST",58.316342,-134.1725938,FALSE,2019-11-01 16:56:00,4
"441","USGS","15040000","DOROTHY C NR JUNEAU AK","ST",58.227453,-134.0420256,FALSE,2019-11-01 16:56:00,4
"442","USGS","15039900","DOROTHY LK OUTLET NR JUNEAU AK","ST",58.24856608,-133.9834106,FALSE,2019-11-01 16:56:00,4
"443","USGS","15087565","GUNNUK C NR KAKE AK","ST",56.97902778,-133.9300278,FALSE,2019-11-01 16:56:00,3
"444","USGS","15031000","LONG R AB LONG LK NR JUNEAU AK","ST",58.18189797,-133.8867403,FALSE,2019-11-01 16:56:00,4
"445","USGS","15038000","CRATER C NR JUNEAU AK","ST",58.1371738,-133.7725699,FALSE,2019-11-01 16:56:00,4
"446","USGS","15087590","ROCKY PASS C NR POINT BAKER AK","ST",56.61909149,-133.737881,FALSE,2019-11-01 16:56:00,3
"447","USGS","15032000","LONG LK OUTLET NR JUNEAU AK","ST",58.16634167,-133.7267354,FALSE,2019-11-01 16:56:00,4
"448","USGS","15041200","TAKU R NR JUNEAU AK","ST",58.53829828,-133.7017432,FALSE,2019-11-01 16:56:00,4
"449","USGS","15034000","LONG R NR JUNEAU AK","ST",58.16634177,-133.6989569,FALSE,2019-11-01 16:56:00,4
"450","USGS","15030000","SWEETHEART FALLS C NR JUNEAU AK","ST",57.9427223,-133.683677,FALSE,2019-11-01 16:56:00,4
"451","USGS","15087570","HAMILTON C NR KAKE AK","ST",56.87216067,-133.6767336,FALSE,2019-11-01 16:56:00,3
"452","USGS","15036000","SPEEL R NR JUNEAU AK","ST",58.20245459,-133.6128437,FALSE,2019-11-01 16:56:00,4
"453","USGS","15081510","BONNIE C NR KLAWOCK AK","ST",55.7454732,-133.2467339,FALSE,2019-11-01 16:56:00,3
"454","USGS","15086600","BIG C NR POINT BAKER AK","ST",56.1313112,-133.1506053,FALSE,2019-11-01 16:56:00,3
"455","USGS","15086500","NECK C NR POINT BAKER AK","ST",56.09825466,-133.1406038,FALSE,2019-11-01 16:56:00,3
"456","USGS","15081500","STANEY C NR CRAIG AK","ST",55.81547447,-133.1344928,FALSE,2019-11-01 16:56:00,3
"457","USGS","15028300","FARRAGUT R NR PETERSBURG AK","ST",57.17299398,-133.111721,FALSE,2019-11-01 16:56:00,3
"458","USGS","15081497","STANEY C NR KLAWOCK AK","ST",55.8010287,-133.1103222,FALSE,2019-11-01 16:56:00,3
"459","USGS","15081614","HALFMILE C AB DIVERSION NR KLAWOCK AK","ST",55.55687287,-133.0186197,FALSE,2019-11-01 16:56:00,3
"460","USGS","15081495","NF STANEY C NR KLAWOCK AK","ST",55.7324084,-132.9688959,FALSE,2019-11-01 16:56:00,3
"461","USGS","15081610","THREEMILE C NR KLAWOCK AK","ST",55.5346476,-132.9563845,FALSE,2019-11-01 16:56:00,3
"462","USGS","15087200","HAMMER SLOUGH AT PETERSBURG AK","ST",56.8071527,-132.9545014,FALSE,2019-11-01 16:56:00,3
"463","USGS","15086225","HATCHERY C AT FOREST SVC RD 23 NR COFFMAN COVE AK","ST",55.9086111,-132.9308333,FALSE,2019-11-01 16:56:00,3
"464","USGS","15087300","FALLS C NR PETERSBURG AK","ST",56.6818693,-132.9239425,FALSE,2019-11-01 16:56:00,3
"465","USGS","15087545","MUNICIPAL WATERSHED C NR PETERSBURG AK","ST",56.77742769,-132.9203336,FALSE,2019-11-01 16:56:00,3
"466","USGS","15087560","NO NAME C NR PETERSBURG AK","ST",56.7915956,-132.9108876,FALSE,2019-11-01 16:56:00,3
"467","USGS","15081580","BLACK BEAR LK OUTLET NR KLAWOCK AK","ST",55.5565836,-132.8774823,FALSE,2019-11-01 16:56:00,3
"468","USGS","15087500","EF HOBO C NR PETERSBURG AK","ST",56.7935403,-132.8747734,FALSE,2019-11-01 16:56:00,3
"469","USGS","15081800","NB TROCADERO C NR HYDABURG AK","ST",55.3610371,-132.873865,FALSE,2019-11-01 16:56:00,2
"470","USGS","15028000","SCENERY C NR PETERSBURG AK","ST",57.08299609,-132.7850483,FALSE,2019-11-01 16:56:00,3
"471","USGS","15026000","CASCADE C NR PETERSBURG AK","ST",57.0054957,-132.7808829,FALSE,2019-11-01 16:56:00,3
"472","USGS","15085700","HARRIS R NR HOLLIS AK","ST",55.4626997,-132.7047029,FALSE,2019-11-01 16:56:00,3
"473","USGS","15085600","INDIAN C NR HOLLIS AK","ST",55.44908906,-132.6963705,FALSE,2019-11-01 16:56:00,3
"474","USGS","15085800","MAYBESO C AT HOLLIS AK","ST",55.490199,-132.676926,FALSE,2019-11-01 16:56:00,3
"475","USGS","15085900","WOLF LK OUTLET NR HOLLIS AK","ST",55.5304722,-132.5972134,FALSE,2019-11-01 16:56:00,3
"476","USGS","15086000","KARTA R NR KASAAN AK","ST",55.56352398,-132.5849949,FALSE,2019-11-01 16:56:00,3
"477","USGS","15081995","REYNOLDS C BL LK MELLEN NR HYDABURG AK","ST",55.2177027,-132.5822164,FALSE,2019-11-01 16:56:00,2
"478","USGS","15086960","SUNRISE LK OUTLET NR WRANGELL AK","ST",56.4118757,-132.4933566,FALSE,2019-11-01 16:56:00,3
"479","USGS","15085300","CABIN C NR KASAAN AK","ST",55.42186107,-132.4794559,FALSE,2019-11-01 16:56:00,3
"480","USGS","15085400","VIRGINIA C NR KASAAN AK","ST",55.430194,-132.4336247,FALSE,2019-11-01 16:56:00,3
"481","USGS","15085100","OLD TOM C NR KASAAN AK","ST",55.3951944,-132.4086268,FALSE,2019-11-01 16:56:00,3
"482","USGS","15087000","MILL C AT WRANGELL AK","ST",56.46743627,-132.3775185,FALSE,2019-11-01 16:56:00,3
"483","USGS","15085000","SALTERY C NR KASAAN AK","ST",55.3996392,-132.3150144,FALSE,2019-11-01 16:56:00,3
"484","USGS","15024000","MILL C NR WRANGELL AK","ST",56.4663296,-132.201682,FALSE,2019-11-01 16:56:00,3
"485","USGS","15083500","PERKINS C NR METLAKATLA","ST",54.9463249,-132.1724762,FALSE,2019-11-01 16:56:00,2
"486","USGS","15087080","UPPER EARL WEST C NR WRANGELL AK","ST",56.2854872,-132.1325175,FALSE,2019-11-01 16:56:00,3
"487","USGS","15024800","STIKINE R NR WRANGELL AK","ST",56.70772188,-132.1319653,FALSE,2019-11-01 16:56:00,3
"488","USGS","15024750","GOAT C NR WRANGELL AK","ST",56.6607782,-131.9722326,FALSE,2019-11-01 16:56:00,3
"489","USGS","15059500","WHIPPLE C NR WARD COVE AK","ST",55.44131048,-131.7955717,FALSE,2019-11-01 16:56:00,3
"490","USGS","15058700","GOVERNMENT C NR KETCHIKAN AK","ST",55.3424302,-131.7005736,FALSE,2019-11-01 16:56:00,2
"491","USGS","15060000","PERSEVERANCE C NR WACKER AK","ST",55.4107614,-131.6697414,FALSE,2019-11-01 16:56:00,3
"492","USGS","15062000","WARD C NR WACKER AK","ST",55.4302044,-131.6683522,FALSE,2019-11-01 16:56:00,3
"493","USGS","15018000","SHELOKUM LK OUTLET NR BELL ISLAND AK","ST",55.98296777,-131.651691,FALSE,2019-11-01 16:56:00,3
"494","USGS","15022000","HARDING R NR WRANGELL AK","ST",56.2129778,-131.6383585,FALSE,2019-11-01 16:56:00,3
"495","USGS","15064000","KETCHIKAN C AT KETCHIKAN AK","ST",55.34409828,-131.636408,FALSE,2019-11-01 16:56:00,2
"496","USGS","15067900","UPPER MAHONEY LK OUTLET NR KETCHIKAN AK","ST",55.4135403,-131.5561319,FALSE,2019-11-01 16:56:00,3
"497","USGS","15016000","SHORT C NR BELL ISLAND AT SHORT BAY AK","ST",56.0163003,-131.5350263,FALSE,2019-11-01 16:56:00,3
"498","USGS","15068040","LEASK CREEK AT SHELTER COVE NR KETCHIKAN AK","ST",55.51909057,-131.5244658,FALSE,2019-11-01 16:56:00,3
"499","USGS","15020000","TYEE C NR WRANGELL AK","ST",56.1996417,-131.5183619,FALSE,2019-11-01 16:56:00,3
"500","USGS","15068000","MAHONEY C NR KETCHIKAN AK","ST",55.42576207,-131.5127992,FALSE,2019-11-01 16:56:00,3
"501","USGS","15020100","TYEE C AT MOUTH NR WRANGELL AK","ST",56.21464249,-131.50864,FALSE,2019-11-01 16:56:00,3
"502","USGS","15019990","TYEE LK OUTLET NR WRANGELL AK","ST",56.1996415,-131.5083622,FALSE,2019-11-01 16:56:00,3
"503","USGS","15080500","TRAITORS R NR BELL ISLAND AK","ST",55.7326942,-131.5016912,FALSE,2019-11-01 16:56:00,3
"504","USGS","15066000","BEAVER FALLS C NR KETCHIKAN AK","ST",55.38159796,-131.4752998,FALSE,2019-11-01 16:56:00,3
"505","USGS","15080000","ORCHARD C BL ORCHARD LAKE NR KETCHIKAN AK","ST",55.8260833,-131.463361,FALSE,2019-11-01 16:56:00,3
"506","USGS","15058000","PURPLE LK OUTLET NR METLAKATLA AK","ST",55.09965956,-131.4350125,FALSE,2019-11-01 16:56:00,2
"507","USGS","15070000","SWAN LK NR KETCHIKAN AK","ST",55.61464737,-131.3389167,FALSE,2019-11-01 16:56:00,3
"508","USGS","15020500","EF BRADFIELD R NR WRANGELL AK","ST",56.2413079,-131.2550365,FALSE,2019-11-01 16:56:00,3
"509","USGS","15072000","FISH C NR KETCHIKAN AK","ST",55.3916038,-131.1955833,FALSE,2019-11-01 16:56:00,3
"510","USGS","15015600","KLAHINI R NR BELL ISLAND AK","ST",56.05380409,-131.0503183,FALSE,2019-11-01 16:56:00,3
"511","USGS","15074000","ELLA C NR KETCHIKAN AK","ST",55.5052144,-131.02531,FALSE,2019-11-01 16:56:00,3
"512","USGS","15076000","MANZANITA C NR KETCHIKAN AK","ST",55.5996568,-130.9850349,FALSE,2019-11-01 16:56:00,3
"513","USGS","15078000","GRACE C NR KETCHIKAN AK","ST",55.6574329,-130.9722582,FALSE,2019-11-01 16:56:00,3
"514","USGS","15015595","UNUK R BL BLUE R NR WRANGELL AK","ST",56.2402062,-130.8819864,FALSE,2019-11-01 16:56:00,3
"515","USGS","15012000","WINSTANLEY C NR KETCHIKAN AK","ST",55.4160513,-130.8691965,FALSE,2019-11-01 16:56:00,3
"516","USGS","15014000","PUNCHBOWL LK OUTLET NR KETCHIKAN AK","ST",55.5163297,-130.7350317,FALSE,2019-11-01 16:56:00,3
"517","USGS","15011894","BLOSSOM R NR KETCHIKAN AK","ST",55.42578169,-130.5628063,FALSE,2019-11-01 16:56:00,3
"518","USGS","15011500","RED R NR METLAKATLA AK","ST",55.1410564,-130.532243,FALSE,2019-11-01 16:56:00,2
"519","USGS","15011870","WHITE C NR KETCHIKAN AK","ST",55.4138425,-130.4622504,FALSE,2019-11-01 16:56:00,3
"520","USGS","15011880","KETA R NR KETCHIKAN AK","ST",55.3532874,-130.4505824,FALSE,2019-11-01 16:56:00,2
"521","USGS","15010000","DAVIS R NR HYDER AK","ST",55.74969419,-130.2017015,FALSE,2019-11-01 16:56:00,3
"522","USGS","15009000","SOULE R NR HYDER AK","ST",55.83302857,-130.1833693,FALSE,2019-11-01 16:56:00,3
"523","USGS","15008000","SALMON R NR HYDER AK","ST",56.025815,-130.0669823,FALSE,2019-11-01 16:56:00,3
"524","USGS","15297767","LK C AT SHEMYA AFB AK","ST",52.71394107,174.0911182,FALSE,2019-11-01 16:56:00,1
"525","USGS","15297771","GALLERY SPRING C AT SHEMYA AFB AK","ST",52.71671929,174.1163954,FALSE,2019-11-01 16:56:00,1
"526","USGS","15297773","GALLERY C AT SHEMYA AFB AK","ST",52.7100527,174.118618,FALSE,2019-11-01 16:56:00,1
"527","USGS","15297640","LIMPET C ON AMCHITKA IS AK","ST",51.5237158,178.9702718,FALSE,2019-11-01 16:56:00,1
"528","USGS","15297650","FALLS C ON AMCHITKA IS AK","ST",51.4984353,179.0138877,FALSE,2019-11-01 16:56:00,1
"529","USGS","15297690","WHITE ALICE C ON AMCHITKA IS AK","ST",51.4759179,179.1219842,FALSE,2019-11-01 16:56:00,1
"530","USGS","15297680","BRIDGE C ON AMCHITKA IS AK","ST",51.44675168,179.1797654,FALSE,2019-11-01 16:56:00,1
"531","USGS","15297655","CLEVENGER C ON AMCHITKA IS AK","ST",51.4078611,179.1806019,FALSE,2019-11-01 16:56:00,1
"532","USGS","15297660","CONSTANTINE SPRING C ON AMCHITKA IS AK","ST",51.37953169,179.2467172,FALSE,2019-11-01 16:56:00,1
